$GPGGA,181038.0,5006.3171,N,01425.6622,E,1,05,,193.000000,M,,,,,*35
$GPRMC,181038.0,A,5006.3171,N,01425.6622,E,0.00,42.00,150606,,*37
$GPGGA,181040.0,5006.3171,N,01425.6622,E,1,05,,193.000000,M,,,,,*3A
$GPRMC,181040.0,A,5006.3171,N,01425.6622,E,0.00,80.00,150606,,*36
$GPGGA,181041.0,5006.3171,N,01425.6622,E,1,05,,193.000000,M,,,,,*3B
$GPRMC,181041.0,A,5006.3171,N,01425.6622,E,0.00,91.00,150606,,*37
$GPGGA,181042.0,5006.3171,N,01425.6622,E,1,05,,193.000000,M,,,,,*38
$GPRMC,181042.0,A,5006.3171,N,01425.6622,E,0.00,82.00,150606,,*36
$GPGGA,181043.0,5006.3171,N,01425.6622,E,1,05,,193.000000,M,,,,,*39
$GPRMC,181043.0,A,5006.3171,N,01425.6622,E,,,,,*09
$GPGGA,181043.0,5006.3171,N,01425.6622,E,1,,,,M,,,,,*29
$GPRMC,181043.0,A,5006.3171,N,01425.6622,E,0.00,87.00,150606,,*32
$GPGGA,181044.0,5006.3171,N,01425.6622,E,1,05,,193.000000,M,,,,,*3E
$GPRMC,181044.0,A,5006.3171,N,01425.6622,E,0.00,78.00,150606,,*35
$GPGGA,181045.0,5006.3171,N,01425.6622,E,1,05,,194.000000,M,,,,,*38
$GPRMC,181045.0,A,5006.3171,N,01425.6622,E,0.00,104.00,150606,,*0E
$GPGGA,181046.0,5006.3171,N,01425.6622,E,1,05,,194.000000,M,,,,,*3B
$GPRMC,181046.0,A,5006.3171,N,01425.6622,E,0.00,116.00,150606,,*0E
$GPGGA,181047.0,5006.3171,N,01425.6622,E,1,05,,194.000000,M,,,,,*3A
$GPRMC,181047.0,A,5006.3171,N,01425.6622,E,0.00,81.00,150606,,*30
$GPGGA,181048.0,5006.3171,N,01425.6622,E,1,05,,194.000000,M,,,,,*35
$GPRMC,181048.0,A,5006.3171,N,01425.6622,E,0.00,45.00,150606,,*37
$GPGGA,181049.0,5006.3171,N,01425.6622,E,1,05,,194.000000,M,,,,,*34
$GPRMC,181049.0,A,5006.3171,N,01425.6622,E,0.00,149.00,150606,,*0B
$GPGGA,181050.0,5006.3170,N,01425.6622,E,1,05,,194.000000,M,,,,,*3D
$GPRMC,181050.0,A,5006.3170,N,01425.6622,E,0.00,168.00,150606,,*01
$GPGGA,181051.0,5006.3170,N,01425.6622,E,1,05,,194.000000,M,,,,,*3C
$GPRMC,181051.0,A,5006.3170,N,01425.6622,E,0.00,124.00,150606,,*08
$GPGGA,181052.0,5006.3170,N,01425.6622,E,1,05,,194.000000,M,,,,,*3F
$GPRMC,181052.0,A,5006.3170,N,01425.6622,E,0.00,350.00,150606,,*0A
$GPGGA,181053.0,5006.3171,N,01425.6621,E,1,05,,194.000000,M,,,,,*3C
$GPRMC,181053.0,A,5006.3171,N,01425.6621,E,0.00,355.00,150606,,*0C
$GPGGA,181054.0,5006.3172,N,01425.6620,E,1,05,,193.000000,M,,,,,*3E
$GPRMC,181054.0,A,5006.3172,N,01425.6620,E,0.00,157.00,150606,,*09
$GPGGA,181055.0,5006.3172,N,01425.6620,E,1,05,,193.000000,M,,,,,*3F
$GPRMC,181055.0,A,5006.3172,N,01425.6620,E,0.00,82.00,150606,,*31
$GPGGA,181056.0,5006.3172,N,01425.6620,E,1,05,,193.000000,M,,,,,*3C
$GPRMC,181056.0,A,5006.3172,N,01425.6620,E,0.00,36.00,150606,,*3D
$GPGGA,181057.0,5006.3171,N,01425.6620,E,1,05,,194.000000,M,,,,,*39
$GPRMC,181057.0,A,5006.3171,N,01425.6620,E,,,,,*0E
$GPGGA,181057.0,5006.3171,N,01425.6620,E,1,,,,M,,,,,*2E
$GPRMC,181057.0,A,5006.3171,N,01425.6620,E,0.00,210.00,150606,,*09
$GPGGA,181058.0,5006.3170,N,01425.6621,E,1,05,,194.000000,M,,,,,*36
$GPRMC,181058.0,A,5006.3170,N,01425.6621,E,0.00,138.00,150606,,*0F
$GPGGA,181059.0,5006.3168,N,01425.6622,E,1,05,,194.000000,M,,,,,*3D
$GPRMC,181059.0,A,5006.3168,N,01425.6622,E,0.54,168.00,150606,,*00
$GPGGA,181100.0,5006.3165,N,01425.6619,E,1,05,,194.000000,M,,,,,*35
$GPRMC,181100.0,A,5006.3165,N,01425.6619,E,0.54,240.00,150606,,*01
$GPGGA,181101.0,5006.3165,N,01425.6616,E,1,05,,194.000000,M,,,,,*3B
$GPRMC,181101.0,A,5006.3165,N,01425.6616,E,0.00,214.00,150606,,*0F
$GPGGA,181102.0,5006.3163,N,01425.6613,E,1,05,,194.000000,M,,,,,*3B
$GPRMC,181102.0,A,5006.3163,N,01425.6613,E,0.00,233.00,150606,,*0A
$GPGGA,181103.0,5006.3163,N,01425.6613,E,1,04,,194.000000,M,,,,,*3B
$GPRMC,181103.0,A,5006.3163,N,01425.6613,E,0.00,169.00,150606,,*07
$GPGGA,181104.0,5006.3162,N,01425.6612,E,1,05,,194.000000,M,,,,,*3D
$GPRMC,181104.0,A,5006.3162,N,01425.6612,E,,,,,*0A
$GPGGA,181104.0,5006.3162,N,01425.6612,E,1,,,,M,,,,,*2A
$GPRMC,181104.0,A,5006.3162,N,01425.6612,E,0.00,196.00,150606,,*00
$GPGGA,181105.0,5006.3160,N,01425.6611,E,1,05,,194.000000,M,,,,,*3D
$GPRMC,181105.0,A,5006.3160,N,01425.6611,E,0.54,167.00,150606,,*0F
$GPGGA,181106.0,5006.3157,N,01425.6610,E,1,05,,194.000000,M,,,,,*3B
$GPRMC,181106.0,A,5006.3157,N,01425.6610,E,0.54,188.00,150606,,*08
$GPGGA,181107.0,5006.3154,N,01425.6610,E,1,05,,194.000000,M,,,,,*39
$GPRMC,181107.0,A,5006.3154,N,01425.6610,E,1.08,168.00,150606,,*0C
$GPGGA,181108.0,5006.3150,N,01425.6610,E,1,,,,M,,,,,*25
$GPRMC,181108.0,A,5006.3150,N,01425.6610,E,1.08,185.00,150606,,*04
$GPGGA,181109.0,5006.3147,N,01425.6612,E,1,05,,194.000000,M,,,,,*37
$GPRMC,181109.0,A,5006.3147,N,01425.6612,E,0.54,155.00,150606,,*04
$GPGGA,181110.0,5006.3145,N,01425.6612,E,1,05,,194.000000,M,,,,,*3D
$GPRMC,181110.0,A,5006.3145,N,01425.6612,E,0.54,191.00,150606,,*06
$GPGGA,181111.0,5006.3143,N,01425.6611,E,1,05,,193.000000,M,,,,,*3E
$GPRMC,181111.0,A,5006.3143,N,01425.6611,E,1.08,164.00,150606,,*00
$GPGGA,181112.0,5006.3140,N,01425.6613,E,1,04,,194.000000,M,,,,,*3A
$GPRMC,181112.0,A,5006.3140,N,01425.6613,E,0.54,139.00,150606,,*02
$GPGGA,181113.0,5006.3134,N,01425.6610,E,1,05,,194.000000,M,,,,,*3A
$GPRMC,181113.0,A,5006.3134,N,01425.6610,E,1.62,209.00,150606,,*07
$GPGGA,181114.0,5006.3128,N,01425.6609,E,1,05,,194.000000,M,,,,,*38
$GPRMC,181114.0,A,5006.3128,N,01425.6609,E,,,,,*0F
$GPGGA,181114.0,5006.3128,N,01425.6609,E,1,,,,M,,,,,*2F
$GPRMC,181114.0,A,5006.3128,N,01425.6609,E,2.16,169.00,150606,,*00
$GPGGA,181115.0,5006.3119,N,01425.6609,E,1,05,,194.000000,M,,,,,*3B
$GPRMC,181115.0,A,5006.3119,N,01425.6609,E,3.78,183.00,150606,,*0E
$GPGGA,181116.0,5006.3114,N,01425.6608,E,1,05,,193.000000,M,,,,,*33
$GPRMC,181116.0,A,5006.3114,N,01425.6608,E,1.62,175.00,150606,,*01
$GPGGA,181117.0,5006.3115,N,01425.6610,E,1,05,,193.000000,M,,,,,*3A
$GPRMC,181117.0,A,5006.3115,N,01425.6610,E,1.08,132.00,150606,,*07
$GPGGA,181118.0,5006.3114,N,01425.6612,E,1,05,,193.000000,M,,,,,*36
$GPRMC,181118.0,A,5006.3114,N,01425.6612,E,0.00,275.00,150606,,*02
$GPGGA,181119.0,5006.3114,N,01425.6614,E,1,05,,193.000000,M,,,,,*31
$GPRMC,181119.0,A,5006.3114,N,01425.6614,E,0.54,74.00,150606,,*37
$GPGGA,181120.0,5006.3116,N,01425.6619,E,1,05,,194.000000,M,,,,,*33
$GPRMC,181120.0,A,5006.3116,N,01425.6619,E,1.08,61.00,150606,,*3E
$GPGGA,181121.0,5006.3118,N,01425.6626,E,1,05,,194.000000,M,,,,,*30
$GPRMC,181121.0,A,5006.3118,N,01425.6626,E,1.62,69.00,150606,,*39
$GPGGA,181122.0,5006.3119,N,01425.6636,E,1,05,,196.000000,M,,,,,*31
$GPRMC,181122.0,A,5006.3119,N,01425.6636,E,1.08,83.00,150606,,*32
$GPGGA,181123.0,5006.3119,N,01425.6645,E,1,05,,197.000000,M,,,,,*35
$GPRMC,181123.0,A,5006.3119,N,01425.6645,E,1.08,75.00,150606,,*3E
$GPGGA,181124.0,5006.3119,N,01425.6652,E,1,05,,198.000000,M,,,,,*3B
$GPRMC,181124.0,A,5006.3119,N,01425.6652,E,1.08,93.00,150606,,*37
$GPGGA,181125.0,5006.3119,N,01425.6660,E,1,05,,199.000000,M,,,,,*3A
$GPRMC,181125.0,A,5006.3119,N,01425.6660,E,1.62,71.00,150606,,*37
$GPGGA,181126.0,5006.3118,N,01425.6669,E,1,05,,200.000000,M,,,,,*32
$GPRMC,181126.0,A,5006.3118,N,01425.6669,E,1.62,69.00,150606,,*35
$GPGGA,181127.0,5006.3119,N,01425.6677,E,1,05,,201.000000,M,,,,,*3C
$GPRMC,181127.0,A,5006.3119,N,01425.6677,E,,,,,*04
$GPGGA,181127.0,5006.3119,N,01425.6677,E,1,,,,M,,,,,*24
$GPRMC,181127.0,A,5006.3119,N,01425.6677,E,1.62,85.00,150606,,*38
$GPGGA,181128.0,5006.3121,N,01425.6685,E,1,05,,202.000000,M,,,,,*36
$GPRMC,181128.0,A,5006.3121,N,01425.6685,E,1.62,45.00,150606,,*3D
$GPGGA,181129.0,5006.3123,N,01425.6692,E,1,05,,204.000000,M,,,,,*35
$GPRMC,181129.0,A,5006.3123,N,01425.6692,E,,,,,*08
$GPGGA,181129.0,5006.3123,N,01425.6692,E,1,,,,M,,,,,*28
$GPRMC,181129.0,A,5006.3123,N,01425.6692,E,1.08,64.00,150606,,*37
$GPGGA,181130.0,5006.3124,N,01425.6700,E,1,05,,205.000000,M,,,,,*31
$GPRMC,181130.0,A,5006.3124,N,01425.6700,E,1.62,78.00,150606,,*33
$GPGGA,181131.0,5006.3125,N,01425.6708,E,1,05,,205.000000,M,,,,,*39
$GPRMC,181131.0,A,5006.3125,N,01425.6708,E,1.62,78.00,150606,,*3B
$GPGGA,181132.0,5006.3127,N,01425.6714,E,1,05,,205.000000,M,,,,,*35
$GPRMC,181132.0,A,5006.3127,N,01425.6714,E,1.08,67.00,150606,,*35
$GPGGA,181133.0,5006.3128,N,01425.6720,E,1,05,,205.000000,M,,,,,*3C
$GPRMC,181133.0,A,5006.3128,N,01425.6720,E,1.08,76.00,150606,,*3C
$GPGGA,181134.0,5006.3132,N,01425.6723,E,1,05,,204.000000,M,,,,,*32
$GPRMC,181134.0,A,5006.3132,N,01425.6723,E,1.08,62.00,150606,,*36
$GPGGA,181135.0,5006.3134,N,01425.6727,E,1,05,,203.000000,M,,,,,*36
$GPRMC,181135.0,A,5006.3134,N,01425.6727,E,1.08,64.00,150606,,*33
$GPGGA,181136.0,5006.3137,N,01425.6731,E,1,05,,202.000000,M,,,,,*30
$GPRMC,181136.0,A,5006.3137,N,01425.6731,E,1.08,55.00,150606,,*36
$GPGGA,181137.0,5006.3139,N,01425.6735,E,1,05,,201.000000,M,,,,,*38
$GPRMC,181137.0,A,5006.3139,N,01425.6735,E,1.08,57.00,150606,,*3F
$GPGGA,181138.0,5006.3141,N,01425.6739,E,1,05,,201.000000,M,,,,,*34
$GPRMC,181138.0,A,5006.3141,N,01425.6739,E,1.08,50.00,150606,,*34
$GPGGA,181139.0,5006.3145,N,01425.6745,E,1,05,,200.000000,M,,,,,*3B
$GPRMC,181139.0,A,5006.3145,N,01425.6745,E,,,,,*02
$GPGGA,181139.0,5006.3145,N,01425.6745,E,1,,,,M,,,,,*22
$GPRMC,181139.0,A,5006.3145,N,01425.6745,E,2.16,42.00,150606,,*35
$GPGGA,181140.0,5006.3149,N,01425.6751,E,1,05,,200.000000,M,,,,,*3C
$GPRMC,181140.0,A,5006.3149,N,01425.6751,E,1.62,50.00,150606,,*31
$GPGGA,181141.0,5006.3152,N,01425.6758,E,1,05,,200.000000,M,,,,,*3E
$GPRMC,181141.0,A,5006.3152,N,01425.6758,E,1.62,63.00,150606,,*33
$GPGGA,181142.0,5006.3152,N,01425.6765,E,1,05,,200.000000,M,,,,,*33
$GPRMC,181142.0,A,5006.3152,N,01425.6765,E,1.62,81.00,150606,,*32
$GPGGA,181143.0,5006.3152,N,01425.6772,E,1,05,,200.000000,M,,,,,*34
$GPRMC,181143.0,A,5006.3152,N,01425.6772,E,1.62,88.00,150606,,*3C
$GPGGA,181144.0,5006.3154,N,01425.6781,E,1,05,,200.000000,M,,,,,*39
$GPRMC,181144.0,A,5006.3154,N,01425.6781,E,,,,,*00
$GPGGA,181144.0,5006.3154,N,01425.6781,E,1,,,,M,,,,,*20
$GPRMC,181144.0,A,5006.3154,N,01425.6781,E,3.24,50.00,150606,,*34
$GPGGA,181145.0,5006.3159,N,01425.6788,E,1,05,,200.000000,M,,,,,*3C
$GPRMC,181145.0,A,5006.3159,N,01425.6788,E,2.16,15.00,150606,,*30
$GPGGA,181146.0,5006.3162,N,01425.6788,E,1,05,,199.000000,M,,,,,*34
$GPRMC,181146.0,A,5006.3162,N,01425.6788,E,,,,,*0E
$GPGGA,181146.0,5006.3162,N,01425.6788,E,1,,,,M,,,,,*2E
$GPRMC,181146.0,A,5006.3162,N,01425.6788,E,0.00,313.00,150606,,*0B
$GPGGA,181147.0,5006.3164,N,01425.6788,E,1,05,,199.000000,M,,,,,*33
$GPRMC,181147.0,A,5006.3164,N,01425.6788,E,1.08,19.00,150606,,*3C
$GPGGA,181148.0,5006.3166,N,01425.6788,E,1,05,,199.000000,M,,,,,*3E
$GPRMC,181148.0,A,5006.3166,N,01425.6788,E,,,,,*04
$GPGGA,181148.0,5006.3166,N,01425.6788,E,1,,,,M,,,,,*24
$GPRMC,181148.0,A,5006.3166,N,01425.6788,E,0.54,93.00,150606,,*3B
$GPGGA,181149.0,5006.3168,N,01425.6788,E,1,05,,197.000000,M,,,,,*3F
$GPRMC,181149.0,A,5006.3168,N,01425.6788,E,1.08,22.00,150606,,*36
$GPGGA,181150.0,5006.3172,N,01425.6791,E,1,05,,197.000000,M,,,,,*34
$GPRMC,181150.0,A,5006.3172,N,01425.6791,E,2.16,23.00,150606,,*30
$GPGGA,181151.0,5006.3177,N,01425.6794,E,1,05,,197.000000,M,,,,,*35
$GPRMC,181151.0,A,5006.3177,N,01425.6794,E,1.08,25.00,150606,,*3B
$GPGGA,181152.0,5006.3180,N,01425.6797,E,1,05,,197.000000,M,,,,,*3D
$GPRMC,181152.0,A,5006.3180,N,01425.6797,E,1.08,28.00,150606,,*3E
$GPGGA,181153.0,5006.3184,N,01425.6800,E,1,05,,197.000000,M,,,,,*39
$GPRMC,181153.0,A,5006.3184,N,01425.6800,E,1.62,35.00,150606,,*3A
$GPGGA,181154.0,5006.3188,N,01425.6804,E,1,05,,196.000000,M,,,,,*37
$GPRMC,181154.0,A,5006.3188,N,01425.6804,E,,,,,*02
$GPGGA,181154.0,5006.3188,N,01425.6804,E,1,,,,M,,,,,*22
$GPRMC,181154.0,A,5006.3188,N,01425.6804,E,1.08,44.00,150606,,*3F
$GPGGA,181155.0,5006.3191,N,01425.6807,E,1,05,,196.000000,M,,,,,*3D
$GPRMC,181155.0,A,5006.3191,N,01425.6807,E,1.08,30.00,150606,,*36
$GPGGA,181156.0,5006.3194,N,01425.6811,E,1,05,,196.000000,M,,,,,*3C
$GPRMC,181156.0,A,5006.3194,N,01425.6811,E,1.08,54.00,150606,,*35
$GPGGA,181157.0,5006.3195,N,01425.6815,E,1,04,,196.000000,M,,,,,*39
$GPRMC,181157.0,A,5006.3195,N,01425.6815,E,1.08,54.00,150606,,*31
$GPGGA,181158.0,5006.3196,N,01425.6817,E,1,05,,196.000000,M,,,,,*36
$GPRMC,181158.0,A,5006.3196,N,01425.6817,E,0.54,34.00,150606,,*31
$GPGGA,181159.0,5006.3196,N,01425.6818,E,1,05,,196.000000,M,,,,,*38
$GPRMC,181159.0,A,5006.3196,N,01425.6818,E,0.54,2.00,150606,,*0A
$GPGGA,181200.0,5006.3198,N,01425.6820,E,1,05,,196.000000,M,,,,,*32
$GPRMC,181200.0,A,5006.3198,N,01425.6820,E,0.54,48.00,150606,,*3E
$GPGGA,181201.0,5006.3198,N,01425.6822,E,1,05,,196.000000,M,,,,,*31
$GPRMC,181201.0,A,5006.3198,N,01425.6822,E,0.00,98.00,150606,,*31
$GPGGA,181202.0,5006.3197,N,01425.6823,E,1,05,,196.000000,M,,,,,*3C
$GPRMC,181202.0,A,5006.3197,N,01425.6823,E,0.00,81.00,150606,,*34
$GPGGA,181203.0,5006.3197,N,01425.6824,E,1,05,,197.000000,M,,,,,*3B
$GPRMC,181203.0,A,5006.3197,N,01425.6824,E,0.00,93.00,150606,,*31
$GPGGA,181204.0,5006.3196,N,01425.6824,E,1,,,,M,,,,,*29
$GPRMC,181204.0,A,5006.3196,N,01425.6824,E,0.00,83.00,150606,,*36
$GPGGA,181205.0,5006.3195,N,01425.6825,E,1,05,,197.000000,M,,,,,*3E
$GPRMC,181205.0,A,5006.3195,N,01425.6825,E,0.00,110.00,150606,,*0E
$GPGGA,181206.0,5006.3194,N,01425.6825,E,1,05,,198.000000,M,,,,,*33
$GPRMC,181206.0,A,5006.3194,N,01425.6825,E,0.00,147.00,150606,,*0E
$GPGGA,181207.0,5006.3193,N,01425.6826,E,1,05,,198.000000,M,,,,,*36
$GPRMC,181207.0,A,5006.3193,N,01425.6826,E,,,,,*0D
$GPGGA,181207.0,5006.3193,N,01425.6826,E,1,,,,M,,,,,*2D
$GPRMC,181207.0,A,5006.3193,N,01425.6826,E,0.00,83.00,150606,,*32
$GPGGA,181208.0,5006.3193,N,01425.6826,E,1,05,,198.000000,M,,,,,*39
$GPRMC,181208.0,A,5006.3193,N,01425.6826,E,0.00,89.00,150606,,*37
$GPGGA,181209.0,5006.3193,N,01425.6828,E,1,05,,198.000000,M,,,,,*36
$GPRMC,181209.0,A,5006.3193,N,01425.6828,E,,,,,*0D
$GPGGA,181209.0,5006.3193,N,01425.6828,E,1,,,,M,,,,,*2D
$GPRMC,181209.0,A,5006.3193,N,01425.6828,E,0.54,43.00,150606,,*3F
$GPGGA,181210.0,5006.3196,N,01425.6831,E,1,05,,198.000000,M,,,,,*33
$GPRMC,181210.0,A,5006.3196,N,01425.6831,E,1.08,44.00,150606,,*35
$GPGGA,181211.0,5006.3199,N,01425.6835,E,1,05,,198.000000,M,,,,,*39
$GPRMC,181211.0,A,5006.3199,N,01425.6835,E,1.62,31.00,150606,,*31
$GPGGA,181212.0,5006.3203,N,01425.6839,E,1,05,,198.000000,M,,,,,*36
$GPRMC,181212.0,A,5006.3203,N,01425.6839,E,1.62,25.00,150606,,*3B
$GPGGA,181213.0,5006.3208,N,01425.6843,E,1,,,,M,,,,,*2A
$GPRMC,181213.0,A,5006.3208,N,01425.6843,E,1.62,35.00,150606,,*3D
$GPGGA,181214.0,5006.3213,N,01425.6848,E,1,05,,198.000000,M,,,,,*37
$GPRMC,181214.0,A,5006.3213,N,01425.6848,E,1.62,34.00,150606,,*3A
$GPGGA,181215.0,5006.3217,N,01425.6852,E,1,05,,198.000000,M,,,,,*39
$GPRMC,181215.0,A,5006.3217,N,01425.6852,E,2.16,18.00,150606,,*3A
$GPGGA,181216.0,5006.3223,N,01425.6854,E,1,05,,198.000000,M,,,,,*3B
$GPRMC,181216.0,A,5006.3223,N,01425.6854,E,1.62,17.00,150606,,*37
$GPGGA,181217.0,5006.3227,N,01425.6857,E,1,05,,198.000000,M,,,,,*3D
$GPRMC,181217.0,A,5006.3227,N,01425.6857,E,1.08,23.00,150606,,*3A
$GPGGA,181218.0,5006.3232,N,01425.6859,E,1,05,,198.000000,M,,,,,*38
$GPRMC,181218.0,A,5006.3232,N,01425.6859,E,1.62,13.00,150606,,*30
$GPGGA,181219.0,5006.3236,N,01425.6860,E,1,05,,198.000000,M,,,,,*37
$GPRMC,181219.0,A,5006.3236,N,01425.6860,E,,,,,*0C
$GPGGA,181219.0,5006.3236,N,01425.6860,E,1,,,,M,,,,,*2C
$GPRMC,181219.0,A,5006.3236,N,01425.6860,E,1.62,14.00,150606,,*38
$GPGGA,181220.0,5006.3239,N,01425.6862,E,1,05,,199.000000,M,,,,,*31
$GPRMC,181220.0,A,5006.3239,N,01425.6862,E,1.08,18.00,150606,,*3F
$GPGGA,181221.0,5006.3241,N,01425.6866,E,1,05,,200.000000,M,,,,,*38
$GPRMC,181221.0,A,5006.3241,N,01425.6866,E,1.08,26.00,150606,,*38
$GPGGA,181222.0,5006.3243,N,01425.6868,E,1,,,,M,,,,,*2E
$GPRMC,181222.0,A,5006.3243,N,01425.6868,E,1.08,16.00,150606,,*34
$GPGGA,181223.0,5006.3244,N,01425.6871,E,1,05,,202.000000,M,,,,,*3B
$GPRMC,181223.0,A,5006.3244,N,01425.6871,E,0.54,35.00,150606,,*33
$GPGGA,181224.0,5006.3245,N,01425.6874,E,1,05,,203.000000,M,,,,,*39
$GPRMC,181224.0,A,5006.3245,N,01425.6874,E,,,,,*03
$GPGGA,181224.0,5006.3245,N,01425.6874,E,1,,,,M,,,,,*23
$GPRMC,181224.0,A,5006.3245,N,01425.6874,E,1.08,8.00,150606,,*06
$GPGGA,181225.0,5006.3248,N,01425.6875,E,1,05,,204.000000,M,,,,,*33
$GPRMC,181225.0,A,5006.3248,N,01425.6875,E,1.08,5.00,150606,,*06
$GPGGA,181226.0,5006.3249,N,01425.6876,E,1,05,,205.000000,M,,,,,*33
$GPRMC,181226.0,A,5006.3249,N,01425.6876,E,0.54,2.00,150606,,*08
$GPGGA,181227.0,5006.3249,N,01425.6877,E,1,05,,207.000000,M,,,,,*31
$GPRMC,181227.0,A,5006.3249,N,01425.6877,E,0.54,10.00,150606,,*3B
$GPGGA,181228.0,5006.3249,N,01425.6879,E,1,05,,208.000000,M,,,,,*3F
$GPRMC,181228.0,A,5006.3249,N,01425.6879,E,0.54,33.00,150606,,*3B
$GPGGA,181229.0,5006.3254,N,01425.6879,E,1,04,,208.000000,M,,,,,*33
$GPRMC,181229.0,A,5006.3254,N,01425.6879,E,1.08,12.00,150606,,*3D
$GPGGA,181230.0,5006.3256,N,01425.6879,E,1,05,,209.000000,M,,,,,*39
$GPRMC,181230.0,A,5006.3256,N,01425.6879,E,0.54,322.00,150606,,*0F
$GPGGA,181231.0,5006.3258,N,01425.6878,E,1,05,,209.000000,M,,,,,*37
$GPRMC,181231.0,A,5006.3258,N,01425.6878,E,0.00,149.00,150606,,*0F
$GPGGA,181232.0,5006.3258,N,01425.6878,E,1,05,,210.000000,M,,,,,*3C
$GPRMC,181232.0,A,5006.3258,N,01425.6878,E,0.54,146.00,150606,,*02
$GPGGA,181233.0,5006.3261,N,01425.6877,E,1,05,,210.000000,M,,,,,*38
$GPRMC,181233.0,A,5006.3261,N,01425.6877,E,0.54,357.00,150606,,*04
$GPGGA,181234.0,5006.3268,N,01425.6873,E,1,05,,210.000000,M,,,,,*32
$GPRMC,181234.0,A,5006.3268,N,01425.6873,E,,,,,*0A
$GPGGA,181234.0,5006.3268,N,01425.6873,E,1,,,,M,,,,,*2A
$GPRMC,181234.0,A,5006.3268,N,01425.6873,E,1.08,330.00,150606,,*07
$GPGGA,181235.0,5006.3269,N,01425.6872,E,1,05,,211.000000,M,,,,,*32
$GPRMC,181235.0,A,5006.3269,N,01425.6872,E,0.54,8.00,150606,,*06
$GPGGA,181236.0,5006.3275,N,01425.6870,E,1,05,,212.000000,M,,,,,*3D
$GPRMC,181236.0,A,5006.3275,N,01425.6870,E,0.54,355.00,150606,,*01
$GPGGA,181237.0,5006.3281,N,01425.6864,E,1,05,,213.000000,M,,,,,*33
$GPRMC,181237.0,A,5006.3281,N,01425.6864,E,1.62,326.00,150606,,*0E
$GPGGA,181238.0,5006.3288,N,01425.6859,E,1,05,,213.000000,M,,,,,*3B
$GPRMC,181238.0,A,5006.3288,N,01425.6859,E,0.54,336.00,150606,,*03
$GPGGA,181239.0,5006.3297,N,01425.6854,E,1,05,,212.000000,M,,,,,*38
$GPRMC,181239.0,A,5006.3297,N,01425.6854,E,,,,,*02
$GPGGA,181239.0,5006.3297,N,01425.6854,E,1,,,,M,,,,,*22
$GPRMC,181239.0,A,5006.3297,N,01425.6854,E,0.00,351.00,150606,,*01
$GPGGA,181240.0,5006.3305,N,01425.6850,E,1,05,,211.000000,M,,,,,*3B
$GPRMC,181240.0,A,5006.3305,N,01425.6850,E,1.08,352.00,150606,,*0B
$GPGGA,181241.0,5006.3313,N,01425.6846,E,1,05,,211.000000,M,,,,,*3A
$GPRMC,181241.0,A,5006.3313,N,01425.6846,E,,,,,*03
$GPGGA,181241.0,5006.3313,N,01425.6846,E,1,,,,M,,,,,*23
$GPRMC,181241.0,A,5006.3313,N,01425.6846,E,0.00,70.00,150606,,*30
$GPGGA,181242.0,5006.3321,N,01425.6842,E,1,05,,210.000000,M,,,,,*3D
$GPRMC,181242.0,A,5006.3321,N,01425.6842,E,0.00,330.00,150606,,*01
$GPGGA,181243.0,5006.3327,N,01425.6838,E,1,05,,210.000000,M,,,,,*37
$GPRMC,181243.0,A,5006.3327,N,01425.6838,E,,,,,*0F
$GPGGA,181243.0,5006.3327,N,01425.6838,E,1,,,,M,,,,,*2F
$GPRMC,181243.0,A,5006.3327,N,01425.6838,E,0.54,335.00,150606,,*0F
$GPGGA,181244.0,5006.3332,N,01425.6835,E,1,05,,210.000000,M,,,,,*39
$GPRMC,181244.0,A,5006.3332,N,01425.6835,E,1.08,341.00,150606,,*0A
$GPGGA,181245.0,5006.3339,N,01425.6834,E,1,05,,210.000000,M,,,,,*32
$GPRMC,181245.0,A,5006.3339,N,01425.6834,E,,,,,*0A
$GPGGA,181245.0,5006.3339,N,01425.6834,E,1,,,,M,,,,,*2A
$GPRMC,181245.0,A,5006.3339,N,01425.6834,E,0.00,285.00,150606,,*01
$GPGGA,181246.0,5006.3347,N,01425.6832,E,1,05,,209.000000,M,,,,,*36
$GPRMC,181246.0,A,5006.3347,N,01425.6832,E,1.08,321.00,150606,,*0B
$GPGGA,181247.0,5006.3354,N,01425.6831,E,1,,,,M,,,,,*26
$GPRMC,181247.0,A,5006.3354,N,01425.6831,E,0.54,313.00,150606,,*02
$GPGGA,181248.0,5006.3358,N,01425.6831,E,1,05,,211.000000,M,,,,,*3C
$GPRMC,181248.0,A,5006.3358,N,01425.6831,E,0.54,251.00,150606,,*06
$GPGGA,181249.0,5006.3362,N,01425.6828,E,1,05,,211.000000,M,,,,,*3C
$GPRMC,181249.0,A,5006.3362,N,01425.6828,E,,,,,*05
$GPGGA,181249.0,5006.3362,N,01425.6828,E,1,,,,M,,,,,*25
$GPRMC,181249.0,A,5006.3362,N,01425.6828,E,0.54,231.00,150606,,*00
$GPGGA,181250.0,5006.3369,N,01425.6826,E,1,05,,212.000000,M,,,,,*32
$GPRMC,181250.0,A,5006.3369,N,01425.6826,E,1.62,334.00,150606,,*0D
$GPGGA,181251.0,5006.3373,N,01425.6825,E,1,05,,213.000000,M,,,,,*3A
$GPRMC,181251.0,A,5006.3373,N,01425.6825,E,0.54,269.00,150606,,*09
$GPGGA,181252.0,5006.3378,N,01425.6823,E,1,05,,213.000000,M,,,,,*34
$GPRMC,181252.0,A,5006.3378,N,01425.6823,E,0.54,305.00,150606,,*0C
$GPGGA,181253.0,5006.3384,N,01425.6822,E,1,04,,214.000000,M,,,,,*31
$GPRMC,181253.0,A,5006.3384,N,01425.6822,E,0.54,344.00,150606,,*0A
$GPGGA,181254.0,5006.3390,N,01425.6822,E,1,04,,215.000000,M,,,,,*32
$GPRMC,181254.0,A,5006.3390,N,01425.6822,E,1.08,325.00,150606,,*07
$GPGGA,181255.0,5006.3399,N,01425.6817,E,1,05,,215.000000,M,,,,,*3D
$GPRMC,181255.0,A,5006.3399,N,01425.6817,E,1.62,325.00,150606,,*05
$GPGGA,181256.0,5006.3406,N,01425.6812,E,1,05,,215.000000,M,,,,,*3A
$GPRMC,181256.0,A,5006.3406,N,01425.6812,E,1.08,308.00,150606,,*01
$GPGGA,181257.0,5006.3416,N,01425.6805,E,1,05,,215.000000,M,,,,,*3C
$GPRMC,181257.0,A,5006.3416,N,01425.6805,E,1.62,313.00,150606,,*01
$GPGGA,181258.0,5006.3432,N,01425.6795,E,1,05,,212.000000,M,,,,,*34
$GPRMC,181258.0,A,5006.3432,N,01425.6795,E,,,,,*0E
$GPGGA,181258.0,5006.3432,N,01425.6795,E,1,,,,M,,,,,*2E
$GPRMC,181258.0,A,5006.3432,N,01425.6795,E,2.16,325.00,150606,,*0B
$GPGGA,181259.0,5006.3444,N,01425.6787,E,1,05,,210.000000,M,,,,,*35
$GPRMC,181259.0,A,5006.3444,N,01425.6787,E,1.62,317.00,150606,,*09
$GPGGA,181300.0,5006.3453,N,01425.6780,E,1,05,,209.000000,M,,,,,*31
$GPRMC,181300.0,A,5006.3453,N,01425.6780,E,,,,,*01
$GPGGA,181300.0,5006.3453,N,01425.6780,E,1,,,,M,,,,,*21
$GPRMC,181300.0,A,5006.3453,N,01425.6780,E,1.62,325.00,150606,,*04
$GPGGA,181301.0,5006.3461,N,01425.6772,E,1,05,,207.000000,M,,,,,*32
$GPRMC,181301.0,A,5006.3461,N,01425.6772,E,1.62,313.00,150606,,*0C
$GPGGA,181302.0,5006.3467,N,01425.6764,E,1,05,,206.000000,M,,,,,*31
$GPRMC,181302.0,A,5006.3467,N,01425.6764,E,,,,,*0E
$GPGGA,181302.0,5006.3467,N,01425.6764,E,1,,,,M,,,,,*2E
$GPRMC,181302.0,A,5006.3467,N,01425.6764,E,1.08,309.00,150606,,*09
$GPGGA,181303.0,5006.3474,N,01425.6756,E,1,05,,205.000000,M,,,,,*30
$GPRMC,181303.0,A,5006.3474,N,01425.6756,E,1.62,324.00,150606,,*08
$GPGGA,181304.0,5006.3480,N,01425.6749,E,1,05,,205.000000,M,,,,,*32
$GPRMC,181304.0,A,5006.3480,N,01425.6749,E,,,,,*0E
$GPGGA,181304.0,5006.3480,N,01425.6749,E,1,,,,M,,,,,*2E
$GPRMC,181304.0,A,5006.3480,N,01425.6749,E,1.62,313.00,150606,,*0E
$GPGGA,181305.0,5006.3485,N,01425.6741,E,1,05,,204.000000,M,,,,,*3F
$GPRMC,181305.0,A,5006.3485,N,01425.6741,E,1.62,316.00,150606,,*07
$GPGGA,181306.0,5006.3491,N,01425.6734,E,1,05,,203.000000,M,,,,,*3C
$GPRMC,181306.0,A,5006.3491,N,01425.6734,E,1.62,313.00,150606,,*06
$GPGGA,181307.0,5006.3496,N,01425.6725,E,1,05,,203.000000,M,,,,,*3A
$GPRMC,181307.0,A,5006.3496,N,01425.6725,E,1.62,310.00,150606,,*03
$GPGGA,181308.0,5006.3501,N,01425.6716,E,1,05,,202.000000,M,,,,,*3B
$GPRMC,181308.0,A,5006.3501,N,01425.6716,E,2.16,325.00,150606,,*05
$GPGGA,181309.0,5006.3508,N,01425.6709,E,1,05,,201.000000,M,,,,,*3E
$GPRMC,181309.0,A,5006.3508,N,01425.6709,E,2.16,322.00,150606,,*04
$GPGGA,181310.0,5006.3514,N,01425.6703,E,1,05,,200.000000,M,,,,,*30
$GPRMC,181310.0,A,5006.3514,N,01425.6703,E,1.62,327.00,150606,,*0E
$GPGGA,181311.0,5006.3519,N,01425.6696,E,1,05,,200.000000,M,,,,,*31
$GPRMC,181311.0,A,5006.3519,N,01425.6696,E,2.16,321.00,150606,,*09
$GPGGA,181312.0,5006.3525,N,01425.6688,E,1,05,,199.000000,M,,,,,*31
$GPRMC,181312.0,A,5006.3525,N,01425.6688,E,2.16,334.00,150606,,*0E
$GPGGA,181313.0,5006.3531,N,01425.6681,E,1,05,,199.000000,M,,,,,*3C
$GPRMC,181313.0,A,5006.3531,N,01425.6681,E,2.16,331.00,150606,,*06
$GPGGA,181314.0,5006.3536,N,01425.6672,E,1,05,,199.000000,M,,,,,*30
$GPRMC,181314.0,A,5006.3536,N,01425.6672,E,,,,,*0A
$GPGGA,181314.0,5006.3536,N,01425.6672,E,1,,,,M,,,,,*2A
$GPRMC,181314.0,A,5006.3536,N,01425.6672,E,2.16,315.00,150606,,*0C
$GPGGA,181315.0,5006.3539,N,01425.6662,E,1,05,,198.000000,M,,,,,*3E
$GPRMC,181315.0,A,5006.3539,N,01425.6662,E,2.16,299.00,150606,,*06
$GPGGA,181316.0,5006.3542,N,01425.6652,E,1,05,,198.000000,M,,,,,*32
$GPRMC,181316.0,A,5006.3542,N,01425.6652,E,2.16,294.00,150606,,*07
$GPGGA,181317.0,5006.3543,N,01425.6642,E,1,05,,198.000000,M,,,,,*33
$GPRMC,181317.0,A,5006.3543,N,01425.6642,E,1.62,294.00,150606,,*06
$GPGGA,181318.0,5006.3546,N,01425.6634,E,1,05,,198.000000,M,,,,,*38
$GPRMC,181318.0,A,5006.3546,N,01425.6634,E,1.62,306.00,150606,,*07
$GPGGA,181319.0,5006.3549,N,01425.6627,E,1,05,,197.000000,M,,,,,*3B
$GPRMC,181319.0,A,5006.3549,N,01425.6627,E,,,,,*0F
$GPGGA,181319.0,5006.3549,N,01425.6627,E,1,,,,M,,,,,*2F
$GPRMC,181319.0,A,5006.3549,N,01425.6627,E,1.62,317.00,150606,,*0B
$GPGGA,181320.0,5006.3553,N,01425.6620,E,1,05,,197.000000,M,,,,,*3D
$GPRMC,181320.0,A,5006.3553,N,01425.6620,E,2.16,306.00,150606,,*0D
$GPGGA,181321.0,5006.3556,N,01425.6612,E,1,05,,197.000000,M,,,,,*38
$GPRMC,181321.0,A,5006.3556,N,01425.6612,E,,,,,*0C
$GPGGA,181321.0,5006.3556,N,01425.6612,E,1,,,,M,,,,,*2C
$GPRMC,181321.0,A,5006.3556,N,01425.6612,E,1.62,308.00,150606,,*06
$GPGGA,181322.0,5006.3560,N,01425.6604,E,1,06,,196.000000,M,,,,,*3B
$GPRMC,181322.0,A,5006.3560,N,01425.6604,E,2.16,307.00,150606,,*08
$GPGGA,181323.0,5006.3563,N,01425.6595,E,1,06,,196.000000,M,,,,,*32
$GPRMC,181323.0,A,5006.3563,N,01425.6595,E,1.62,305.00,150606,,*03
$GPGGA,181324.0,5006.3565,N,01425.6586,E,1,06,,196.000000,M,,,,,*31
$GPRMC,181324.0,A,5006.3565,N,01425.6586,E,,,,,*07
$GPGGA,181324.0,5006.3565,N,01425.6586,E,1,,,,M,,,,,*27
$GPRMC,181324.0,A,5006.3565,N,01425.6586,E,1.62,304.00,150606,,*01
$GPGGA,181325.0,5006.3568,N,01425.6577,E,1,06,,196.000000,M,,,,,*33
$GPRMC,181325.0,A,5006.3568,N,01425.6577,E,1.62,299.00,150606,,*06
$GPGGA,181326.0,5006.3570,N,01425.6568,E,1,06,,196.000000,M,,,,,*37
$GPRMC,181326.0,A,5006.3570,N,01425.6568,E,1.62,298.00,150606,,*03
$GPGGA,181327.0,5006.3572,N,01425.6559,E,1,06,,196.000000,M,,,,,*36
$GPRMC,181327.0,A,5006.3572,N,01425.6559,E,1.62,297.00,150606,,*0D
$GPGGA,181328.0,5006.3574,N,01425.6550,E,1,06,,197.000000,M,,,,,*37
$GPRMC,181328.0,A,5006.3574,N,01425.6550,E,1.62,291.00,150606,,*0B
$GPGGA,181329.0,5006.3575,N,01425.6541,E,1,06,,197.000000,M,,,,,*37
$GPRMC,181329.0,A,5006.3575,N,01425.6541,E,1.62,293.00,150606,,*09
$GPGGA,181330.0,5006.3577,N,01425.6533,E,1,06,,197.000000,M,,,,,*38
$GPRMC,181330.0,A,5006.3577,N,01425.6533,E,1.62,296.00,150606,,*03
$GPGGA,181331.0,5006.3578,N,01425.6524,E,1,06,,197.000000,M,,,,,*30
$GPRMC,181331.0,A,5006.3578,N,01425.6524,E,,,,,*07
$GPGGA,181331.0,5006.3578,N,01425.6524,E,1,,,,M,,,,,*27
$GPRMC,181331.0,A,5006.3578,N,01425.6524,E,1.62,289.00,150606,,*05
$GPGGA,181332.0,5006.3580,N,01425.6515,E,1,06,,197.000000,M,,,,,*36
$GPRMC,181332.0,A,5006.3580,N,01425.6515,E,1.62,288.00,150606,,*02
$GPGGA,181333.0,5006.3582,N,01425.6505,E,1,06,,197.000000,M,,,,,*34
$GPRMC,181333.0,A,5006.3582,N,01425.6505,E,1.62,285.00,150606,,*0D
$GPGGA,181334.0,5006.3583,N,01425.6496,E,1,06,,197.000000,M,,,,,*39
$GPRMC,181334.0,A,5006.3583,N,01425.6496,E,1.62,288.00,150606,,*0D
$GPGGA,181335.0,5006.3585,N,01425.6486,E,1,06,,196.000000,M,,,,,*3E
$GPRMC,181335.0,A,5006.3585,N,01425.6486,E,2.16,286.00,150606,,*05
$GPGGA,181336.0,5006.3587,N,01425.6477,E,1,06,,196.000000,M,,,,,*31
$GPRMC,181336.0,A,5006.3587,N,01425.6477,E,1.62,288.00,150606,,*04
$GPGGA,181337.0,5006.3588,N,01425.6468,E,1,06,,196.000000,M,,,,,*31
$GPRMC,181337.0,A,5006.3588,N,01425.6468,E,1.62,285.00,150606,,*09
$GPGGA,181338.0,5006.3590,N,01425.6458,E,1,06,,196.000000,M,,,,,*34
$GPRMC,181338.0,A,5006.3590,N,01425.6458,E,2.16,277.00,150606,,*01
$GPGGA,181339.0,5006.3591,N,01425.6449,E,1,06,,196.000000,M,,,,,*34
$GPRMC,181339.0,A,5006.3591,N,01425.6449,E,,,,,*02
$GPGGA,181339.0,5006.3591,N,01425.6449,E,1,,,,M,,,,,*22
$GPRMC,181339.0,A,5006.3591,N,01425.6449,E,1.62,279.00,150606,,*0F
$GPGGA,181340.0,5006.3592,N,01425.6439,E,1,06,,196.000000,M,,,,,*3E
$GPRMC,181340.0,A,5006.3592,N,01425.6439,E,1.62,282.00,150606,,*01
$GPGGA,181341.0,5006.3593,N,01425.6431,E,1,06,,196.000000,M,,,,,*36
$GPRMC,181341.0,A,5006.3593,N,01425.6431,E,1.62,286.00,150606,,*0D
$GPGGA,181342.0,5006.3594,N,01425.6424,E,1,06,,196.000000,M,,,,,*36
$GPRMC,181342.0,A,5006.3594,N,01425.6424,E,1.08,290.00,150606,,*06
$GPGGA,181343.0,5006.3595,N,01425.6418,E,1,06,,196.000000,M,,,,,*39
$GPRMC,181343.0,A,5006.3595,N,01425.6418,E,1.08,284.00,150606,,*0C
$GPGGA,181344.0,5006.3595,N,01425.6414,E,1,06,,196.000000,M,,,,,*32
$GPRMC,181344.0,A,5006.3595,N,01425.6414,E,0.54,311.00,150606,,*02
$GPGGA,181345.0,5006.3596,N,01425.6414,E,1,06,,197.000000,M,,,,,*31
$GPRMC,181345.0,A,5006.3596,N,01425.6414,E,0.54,45.00,150606,,*32
$GPGGA,181346.0,5006.3598,N,01425.6418,E,1,06,,196.000000,M,,,,,*31
$GPRMC,181346.0,A,5006.3598,N,01425.6418,E,,,,,*07
$GPGGA,181346.0,5006.3598,N,01425.6418,E,1,,,,M,,,,,*27
$GPRMC,181346.0,A,5006.3598,N,01425.6418,E,1.62,58.00,150606,,*3B
$GPGGA,181347.0,5006.3602,N,01425.6426,E,1,06,,196.000000,M,,,,,*3D
$GPRMC,181347.0,A,5006.3602,N,01425.6426,E,1.62,58.00,150606,,*37
$GPGGA,181348.0,5006.3605,N,01425.6434,E,1,06,,196.000000,M,,,,,*36
$GPRMC,181348.0,A,5006.3605,N,01425.6434,E,,,,,*00
$GPGGA,181348.0,5006.3605,N,01425.6434,E,1,,,,M,,,,,*20
$GPRMC,181348.0,A,5006.3605,N,01425.6434,E,1.62,61.00,150606,,*36
$GPGGA,181349.0,5006.3607,N,01425.6442,E,1,06,,196.000000,M,,,,,*34
$GPRMC,181349.0,A,5006.3607,N,01425.6442,E,2.16,63.00,150606,,*36
$GPGGA,181350.0,5006.3609,N,01425.6452,E,1,06,,197.000000,M,,,,,*32
$GPRMC,181350.0,A,5006.3609,N,01425.6452,E,,,,,*05
$GPGGA,181350.0,5006.3609,N,01425.6452,E,1,,,,M,,,,,*25
$GPRMC,181350.0,A,5006.3609,N,01425.6452,E,2.16,67.00,150606,,*35
$GPGGA,181351.0,5006.3611,N,01425.6461,E,1,06,,197.000000,M,,,,,*3A
$GPRMC,181351.0,A,5006.3611,N,01425.6461,E,1.62,65.00,150606,,*3F
$GPGGA,181352.0,5006.3613,N,01425.6470,E,1,07,,197.000000,M,,,,,*3A
$GPRMC,181352.0,A,5006.3613,N,01425.6470,E,,,,,*0C
$GPGGA,181352.0,5006.3613,N,01425.6470,E,1,,,,M,,,,,*2C
$GPRMC,181352.0,A,5006.3613,N,01425.6470,E,2.16,63.00,150606,,*38
$GPGGA,181353.0,5006.3615,N,01425.6479,E,1,07,,198.000000,M,,,,,*3B
$GPRMC,181353.0,A,5006.3615,N,01425.6479,E,1.62,62.00,150606,,*37
$GPGGA,181354.0,5006.3618,N,01425.6488,E,1,07,,197.000000,M,,,,,*30
$GPRMC,181354.0,A,5006.3618,N,01425.6488,E,,,,,*06
$GPGGA,181354.0,5006.3618,N,01425.6488,E,1,,,,M,,,,,*26
$GPRMC,181354.0,A,5006.3618,N,01425.6488,E,2.16,60.00,150606,,*31
$GPGGA,181355.0,5006.3622,N,01425.6496,E,1,07,,198.000000,M,,,,,*38
$GPRMC,181355.0,A,5006.3622,N,01425.6496,E,1.62,46.00,150606,,*32
$GPGGA,181356.0,5006.3625,N,01425.6503,E,1,07,,198.000000,M,,,,,*31
$GPRMC,181356.0,A,5006.3625,N,01425.6503,E,,,,,*08
$GPGGA,181356.0,5006.3625,N,01425.6503,E,1,,,,M,,,,,*28
$GPRMC,181356.0,A,5006.3625,N,01425.6503,E,1.62,55.00,150606,,*39
$GPGGA,181357.0,5006.3628,N,01425.6508,E,1,07,,198.000000,M,,,,,*36
$GPRMC,181357.0,A,5006.3628,N,01425.6508,E,1.08,18.00,150606,,*3B
$GPGGA,181358.0,5006.3632,N,01425.6512,E,1,07,,198.000000,M,,,,,*39
$GPRMC,181358.0,A,5006.3632,N,01425.6512,E,1.08,23.00,150606,,*3C
$GPGGA,181359.0,5006.3636,N,01425.6519,E,1,07,,198.000000,M,,,,,*37
$GPRMC,181359.0,A,5006.3636,N,01425.6519,E,1.62,47.00,150606,,*3C
$GPGGA,181400.0,5006.3640,N,01425.6526,E,1,07,,198.000000,M,,,,,*31
$GPRMC,181400.0,A,5006.3640,N,01425.6526,E,1.62,50.00,150606,,*3C
$GPGGA,181401.0,5006.3643,N,01425.6532,E,1,07,,197.000000,M,,,,,*39
$GPRMC,181401.0,A,5006.3643,N,01425.6532,E,0.54,41.00,150606,,*3F
$GPGGA,181402.0,5006.3646,N,01425.6539,E,1,07,,197.000000,M,,,,,*34
$GPRMC,181402.0,A,5006.3646,N,01425.6539,E,1.62,47.00,150606,,*30
$GPGGA,181403.0,5006.3649,N,01425.6548,E,1,07,,196.000000,M,,,,,*3D
$GPRMC,181403.0,A,5006.3649,N,01425.6548,E,,,,,*0A
$GPGGA,181403.0,5006.3649,N,01425.6548,E,1,,,,M,,,,,*2A
$GPRMC,181403.0,A,5006.3649,N,01425.6548,E,1.62,58.00,150606,,*36
$GPGGA,181404.0,5006.3651,N,01425.6556,E,1,07,,196.000000,M,,,,,*3C
$GPRMC,181404.0,A,5006.3651,N,01425.6556,E,1.62,71.00,150606,,*3C
$GPGGA,181405.0,5006.3652,N,01425.6564,E,1,07,,196.000000,M,,,,,*3F
$GPRMC,181405.0,A,5006.3652,N,01425.6564,E,1.08,87.00,150606,,*3A
$GPGGA,181406.0,5006.3652,N,01425.6571,E,1,07,,196.000000,M,,,,,*38
$GPRMC,181406.0,A,5006.3652,N,01425.6571,E,1.62,93.00,150606,,*34
$GPGGA,181407.0,5006.3651,N,01425.6580,E,1,07,,196.000000,M,,,,,*34
$GPRMC,181407.0,A,5006.3651,N,01425.6580,E,1.62,78.00,150606,,*3D
$GPGGA,181408.0,5006.3653,N,01425.6589,E,1,07,,197.000000,M,,,,,*31
$GPRMC,181408.0,A,5006.3653,N,01425.6589,E,1.62,49.00,150606,,*3B
$GPGGA,181409.0,5006.3656,N,01425.6596,E,1,07,,197.000000,M,,,,,*3B
$GPRMC,181409.0,A,5006.3656,N,01425.6596,E,,,,,*0D
$GPGGA,181409.0,5006.3656,N,01425.6596,E,1,,,,M,,,,,*2D
$GPRMC,181409.0,A,5006.3656,N,01425.6596,E,1.08,54.00,150606,,*31
$GPGGA,181410.0,5006.3657,N,01425.6603,E,1,07,,196.000000,M,,,,,*3C
$GPRMC,181410.0,A,5006.3657,N,01425.6603,E,1.62,71.00,150606,,*3C
$GPGGA,181411.0,5006.3659,N,01425.6611,E,1,07,,196.000000,M,,,,,*30
$GPRMC,181411.0,A,5006.3659,N,01425.6611,E,1.62,73.00,150606,,*32
$GPGGA,181412.0,5006.3661,N,01425.6623,E,1,07,,196.000000,M,,,,,*39
$GPRMC,181412.0,A,5006.3661,N,01425.6623,E,3.24,74.00,150606,,*3C
$GPGGA,181413.0,5006.3662,N,01425.6634,E,1,07,,195.000000,M,,,,,*3E
$GPRMC,181413.0,A,5006.3662,N,01425.6634,E,1.08,82.00,150606,,*3D
$GPGGA,181414.0,5006.3665,N,01425.6635,E,1,07,,196.000000,M,,,,,*3C
$GPRMC,181414.0,A,5006.3665,N,01425.6635,E,1.08,353.00,150606,,*03
$GPGGA,181415.0,5006.3670,N,01425.6631,E,1,06,,197.000000,M,,,,,*3D
$GPRMC,181415.0,A,5006.3670,N,01425.6631,E,1.62,331.00,150606,,*0A
$GPGGA,181416.0,5006.3673,N,01425.6628,E,1,07,,197.000000,M,,,,,*34
$GPRMC,181416.0,A,5006.3673,N,01425.6628,E,1.08,295.00,150606,,*01
$GPGGA,181417.0,5006.3675,N,01425.6624,E,1,07,,198.000000,M,,,,,*30
$GPRMC,181417.0,A,5006.3675,N,01425.6624,E,0.54,305.00,150606,,*0A
$GPGGA,181418.0,5006.3674,N,01425.6620,E,1,07,,198.000000,M,,,,,*3A
$GPRMC,181418.0,A,5006.3674,N,01425.6620,E,1.08,216.00,150606,,*0B
$GPGGA,181419.0,5006.3673,N,01425.6616,E,1,07,,199.000000,M,,,,,*38
$GPRMC,181419.0,A,5006.3673,N,01425.6616,E,,,,,*00
$GPGGA,181419.0,5006.3673,N,01425.6616,E,1,,,,M,,,,,*20
$GPRMC,181419.0,A,5006.3673,N,01425.6616,E,0.54,245.00,150606,,*06
$GPGGA,181420.0,5006.3674,N,01425.6611,E,1,07,,198.000000,M,,,,,*33
$GPRMC,181420.0,A,5006.3674,N,01425.6611,E,0.54,285.00,150606,,*00
$GPGGA,181421.0,5006.3675,N,01425.6605,E,1,07,,198.000000,M,,,,,*36
$GPRMC,181421.0,A,5006.3675,N,01425.6605,E,1.08,284.00,150606,,*0C
$GPGGA,181422.0,5006.3676,N,01425.6598,E,1,07,,197.000000,M,,,,,*3E
$GPRMC,181422.0,A,5006.3676,N,01425.6598,E,1.08,247.00,150606,,*04
$GPGGA,181423.0,5006.3677,N,01425.6593,E,1,07,,197.000000,M,,,,,*35
$GPRMC,181423.0,A,5006.3677,N,01425.6593,E,0.54,298.00,150606,,*05
$GPGGA,181424.0,5006.3679,N,01425.6588,E,1,07,,197.000000,M,,,,,*36
$GPRMC,181424.0,A,5006.3679,N,01425.6588,E,0.54,293.00,150606,,*0D
$GPGGA,181425.0,5006.3681,N,01425.6581,E,1,07,,197.000000,M,,,,,*39
$GPRMC,181425.0,A,5006.3681,N,01425.6581,E,1.08,283.00,150606,,*0B
$GPGGA,181426.0,5006.3683,N,01425.6573,E,1,07,,196.000000,M,,,,,*34
$GPRMC,181426.0,A,5006.3683,N,01425.6573,E,,,,,*03
$GPGGA,181426.0,5006.3683,N,01425.6573,E,1,,,,M,,,,,*23
$GPRMC,181426.0,A,5006.3683,N,01425.6573,E,1.08,289.00,150606,,*0D
$GPGGA,181427.0,5006.3684,N,01425.6565,E,1,07,,195.000000,M,,,,,*36
$GPRMC,181427.0,A,5006.3684,N,01425.6565,E,1.08,295.00,150606,,*01
$GPGGA,181428.0,5006.3686,N,01425.6556,E,1,07,,195.000000,M,,,,,*3B
$GPRMC,181428.0,A,5006.3686,N,01425.6556,E,,,,,*0F
$GPGGA,181428.0,5006.3686,N,01425.6556,E,1,,,,M,,,,,*2F
$GPRMC,181428.0,A,5006.3686,N,01425.6556,E,1.08,281.00,150606,,*09
$GPGGA,181429.0,5006.3688,N,01425.6548,E,1,07,,194.000000,M,,,,,*3A
$GPRMC,181429.0,A,5006.3688,N,01425.6548,E,1.08,292.00,150606,,*0B
$GPGGA,181430.0,5006.3690,N,01425.6539,E,1,,,,M,,,,,*28
$GPRMC,181430.0,A,5006.3690,N,01425.6539,E,1.62,291.00,150606,,*03
$GPGGA,181431.0,5006.3692,N,01425.6531,E,1,07,,194.000000,M,,,,,*36
$GPRMC,181431.0,A,5006.3692,N,01425.6531,E,1.08,300.00,150606,,*0D
$GPGGA,181432.0,5006.3693,N,01425.6525,E,1,07,,193.000000,M,,,,,*36
$GPRMC,181432.0,A,5006.3693,N,01425.6525,E,,,,,*04
$GPGGA,181432.0,5006.3693,N,01425.6525,E,1,,,,M,,,,,*24
$GPRMC,181432.0,A,5006.3693,N,01425.6525,E,0.54,249.00,150606,,*0E
$GPGGA,181433.0,5006.3693,N,01425.6519,E,1,07,,193.000000,M,,,,,*38
$GPRMC,181433.0,A,5006.3693,N,01425.6519,E,1.08,281.00,150606,,*0C
$GPGGA,181434.0,5006.3694,N,01425.6511,E,1,07,,193.000000,M,,,,,*30
$GPRMC,181434.0,A,5006.3694,N,01425.6511,E,0.54,277.00,150606,,*05
$GPGGA,181435.0,5006.3695,N,01425.6504,E,1,07,,193.000000,M,,,,,*34
$GPRMC,181435.0,A,5006.3695,N,01425.6504,E,1.08,306.00,150606,,*0E
$GPGGA,181436.0,5006.3696,N,01425.6495,E,1,07,,193.000000,M,,,,,*3D
$GPRMC,181436.0,A,5006.3696,N,01425.6495,E,1.08,288.00,150606,,*00
$GPGGA,181437.0,5006.3697,N,01425.6488,E,1,07,,193.000000,M,,,,,*31
$GPRMC,181437.0,A,5006.3697,N,01425.6488,E,1.08,305.00,150606,,*08
$GPGGA,181438.0,5006.3697,N,01425.6478,E,1,07,,193.000000,M,,,,,*31
$GPRMC,181438.0,A,5006.3697,N,01425.6478,E,1.08,284.00,150606,,*00
$GPGGA,181439.0,5006.3696,N,01425.6467,E,1,07,,193.000000,M,,,,,*3F
$GPRMC,181439.0,A,5006.3696,N,01425.6467,E,1.62,263.00,150606,,*0B
$GPGGA,181440.0,5006.3695,N,01425.6456,E,1,07,,193.000000,M,,,,,*30
$GPRMC,181440.0,A,5006.3695,N,01425.6456,E,,,,,*02
$GPGGA,181440.0,5006.3695,N,01425.6456,E,1,,,,M,,,,,*22
$GPRMC,181440.0,A,5006.3695,N,01425.6456,E,1.62,277.00,150606,,*01
$GPGGA,181441.0,5006.3694,N,01425.6445,E,1,07,,194.000000,M,,,,,*35
$GPRMC,181441.0,A,5006.3694,N,01425.6445,E,1.08,265.00,150606,,*0C
$GPGGA,181442.0,5006.3694,N,01425.6438,E,1,07,,194.000000,M,,,,,*3C
$GPRMC,181442.0,A,5006.3694,N,01425.6438,E,0.54,337.00,150606,,*0B
$GPGGA,181443.0,5006.3693,N,01425.6429,E,1,07,,195.000000,M,,,,,*3B
$GPRMC,181443.0,A,5006.3693,N,01425.6429,E,0.54,340.00,150606,,*0D
$GPGGA,181444.0,5006.3693,N,01425.6421,E,1,07,,195.000000,M,,,,,*34
$GPRMC,181444.0,A,5006.3693,N,01425.6421,E,,,,,*00
$GPGGA,181444.0,5006.3693,N,01425.6421,E,1,,,,M,,,,,*20
$GPRMC,181444.0,A,5006.3693,N,01425.6421,E,1.62,290.00,150606,,*0A
$GPGGA,181445.0,5006.3691,N,01425.6407,E,1,07,,196.000000,M,,,,,*30
$GPRMC,181445.0,A,5006.3691,N,01425.6407,E,1.62,278.00,150606,,*0B
$GPGGA,181446.0,5006.3690,N,01425.6394,E,1,07,,196.000000,M,,,,,*3F
$GPRMC,181446.0,A,5006.3690,N,01425.6394,E,1.08,283.00,150606,,*0C
$GPGGA,181447.0,5006.3688,N,01425.6382,E,1,07,,197.000000,M,,,,,*31
$GPRMC,181447.0,A,5006.3688,N,01425.6382,E,0.54,288.00,150606,,*00
$GPGGA,181448.0,5006.3686,N,01425.6371,E,1,07,,197.000000,M,,,,,*3C
$GPRMC,181448.0,A,5006.3686,N,01425.6371,E,1.08,288.00,150606,,*05
$GPGGA,181449.0,5006.3683,N,01425.6358,E,1,07,,199.000000,M,,,,,*3D
$GPRMC,181449.0,A,5006.3683,N,01425.6358,E,1.08,263.00,150606,,*0F
$GPGGA,181450.0,5006.3680,N,01425.6344,E,1,07,,200.000000,M,,,,,*38
$GPRMC,181450.0,A,5006.3680,N,01425.6344,E,1.62,273.00,150606,,*04
$GPGGA,181451.0,5006.3677,N,01425.6329,E,1,07,,201.000000,M,,,,,*3B
$GPRMC,181451.0,A,5006.3677,N,01425.6329,E,,,,,*01
$GPGGA,181451.0,5006.3677,N,01425.6329,E,1,,,,M,,,,,*21
$GPRMC,181451.0,A,5006.3677,N,01425.6329,E,1.62,267.00,150606,,*03
$GPGGA,181452.0,5006.3674,N,01425.6316,E,1,07,,202.000000,M,,,,,*34
$GPRMC,181452.0,A,5006.3674,N,01425.6316,E,0.54,294.00,150606,,*07
$GPGGA,181453.0,5006.3671,N,01425.6304,E,1,07,,203.000000,M,,,,,*32
$GPRMC,181453.0,A,5006.3671,N,01425.6304,E,,,,,*0A
$GPGGA,181453.0,5006.3671,N,01425.6304,E,1,,,,M,,,,,*2A
$GPRMC,181453.0,A,5006.3671,N,01425.6304,E,0.54,284.00,150606,,*01
$GPGGA,181454.0,5006.3668,N,01425.6290,E,1,07,,203.000000,M,,,,,*31
$GPRMC,181454.0,A,5006.3668,N,01425.6290,E,1.08,279.00,150606,,*08
$GPGGA,181455.0,5006.3666,N,01425.6278,E,1,07,,204.000000,M,,,,,*3F
$GPRMC,181455.0,A,5006.3666,N,01425.6278,E,,,,,*00
$GPGGA,181455.0,5006.3666,N,01425.6278,E,1,,,,M,,,,,*20
$GPRMC,181455.0,A,5006.3666,N,01425.6278,E,1.62,259.00,150606,,*0F
$GPGGA,181456.0,5006.3664,N,01425.6267,E,1,07,,204.000000,M,,,,,*30
$GPRMC,181456.0,A,5006.3664,N,01425.6267,E,1.62,264.00,150606,,*0E
$GPGGA,181457.0,5006.3664,N,01425.6257,E,1,07,,204.000000,M,,,,,*32
$GPRMC,181457.0,A,5006.3664,N,01425.6257,E,,,,,*0D
$GPGGA,181457.0,5006.3664,N,01425.6257,E,1,,,,M,,,,,*2D
$GPRMC,181457.0,A,5006.3664,N,01425.6257,E,2.16,261.00,150606,,*09
$GPGGA,181458.0,5006.3665,N,01425.6247,E,1,07,,204.000000,M,,,,,*3D
$GPRMC,181458.0,A,5006.3665,N,01425.6247,E,1.62,261.00,150606,,*06
$GPGGA,181459.0,5006.3663,N,01425.6233,E,1,07,,203.000000,M,,,,,*3E
$GPRMC,181459.0,A,5006.3663,N,01425.6233,E,,,,,*06
$GPGGA,181459.0,5006.3663,N,01425.6233,E,1,,,,M,,,,,*26
$GPRMC,181459.0,A,5006.3663,N,01425.6233,E,2.70,258.00,150606,,*08
$GPGGA,181500.0,5006.3661,N,01425.6217,E,1,07,,203.000000,M,,,,,*37
$GPRMC,181500.0,A,5006.3661,N,01425.6217,E,2.16,259.00,150606,,*00
$GPGGA,181501.0,5006.3660,N,01425.6206,E,1,07,,203.000000,M,,,,,*37
$GPRMC,181501.0,A,5006.3660,N,01425.6206,E,,,,,*0F
$GPGGA,181501.0,5006.3660,N,01425.6206,E,1,,,,M,,,,,*2F
$GPRMC,181501.0,A,5006.3660,N,01425.6206,E,1.08,275.00,150606,,*02
$GPGGA,181502.0,5006.3657,N,01425.6193,E,1,07,,204.000000,M,,,,,*38
$GPRMC,181502.0,A,5006.3657,N,01425.6193,E,2.16,252.00,150606,,*03
$GPGGA,181503.0,5006.3656,N,01425.6182,E,1,07,,204.000000,M,,,,,*38
$GPRMC,181503.0,A,5006.3656,N,01425.6182,E,1.62,264.00,150606,,*06
$GPGGA,181504.0,5006.3654,N,01425.6169,E,1,07,,204.000000,M,,,,,*38
$GPRMC,181504.0,A,5006.3654,N,01425.6169,E,1.62,263.00,150606,,*01
$GPGGA,181505.0,5006.3652,N,01425.6156,E,1,07,,204.000000,M,,,,,*33
$GPRMC,181505.0,A,5006.3652,N,01425.6156,E,,,,,*0C
$GPGGA,181505.0,5006.3652,N,01425.6156,E,1,,,,M,,,,,*2C
$GPRMC,181505.0,A,5006.3652,N,01425.6156,E,2.16,258.00,150606,,*02
$GPGGA,181506.0,5006.3648,N,01425.6139,E,1,07,,205.000000,M,,,,,*33
$GPRMC,181506.0,A,5006.3648,N,01425.6139,E,2.16,258.00,150606,,*03
$GPGGA,181507.0,5006.3644,N,01425.6124,E,1,07,,206.000000,M,,,,,*31
$GPRMC,181507.0,A,5006.3644,N,01425.6124,E,,,,,*0C
$GPGGA,181507.0,5006.3644,N,01425.6124,E,1,,,,M,,,,,*2C
$GPRMC,181507.0,A,5006.3644,N,01425.6124,E,1.62,260.00,150606,,*09
$GPGGA,181508.0,5006.3640,N,01425.6104,E,1,07,,206.000000,M,,,,,*38
$GPRMC,181508.0,A,5006.3640,N,01425.6104,E,2.16,268.00,150606,,*08
$GPGGA,181509.0,5006.3641,N,01425.6089,E,1,07,,207.000000,M,,,,,*3D
$GPRMC,181509.0,A,5006.3641,N,01425.6089,E,,,,,*01
$GPGGA,181509.0,5006.3641,N,01425.6089,E,1,,,,M,,,,,*21
$GPRMC,181509.0,A,5006.3641,N,01425.6089,E,2.16,293.00,150606,,*08
$GPGGA,181510.0,5006.3642,N,01425.6074,E,1,07,,207.000000,M,,,,,*34
$GPRMC,181510.0,A,5006.3642,N,01425.6074,E,2.16,276.00,150606,,*0A
$GPGGA,181511.0,5006.3642,N,01425.6064,E,1,07,,206.000000,M,,,,,*35
$GPRMC,181511.0,A,5006.3642,N,01425.6064,E,1.62,245.00,150606,,*0A
$GPGGA,181512.0,5006.3643,N,01425.6058,E,1,07,,206.000000,M,,,,,*38
$GPRMC,181512.0,A,5006.3643,N,01425.6058,E,1.62,261.00,150606,,*01
$GPGGA,181513.0,5006.3644,N,01425.6050,E,1,07,,205.000000,M,,,,,*35
$GPRMC,181513.0,A,5006.3644,N,01425.6050,E,1.62,273.00,150606,,*0C
$GPGGA,181514.0,5006.3647,N,01425.6044,E,1,07,,204.000000,M,,,,,*35
$GPRMC,181514.0,A,5006.3647,N,01425.6044,E,1.08,292.00,150606,,*0E
$GPGGA,181515.0,5006.3650,N,01425.6042,E,1,07,,203.000000,M,,,,,*33
$GPRMC,181515.0,A,5006.3650,N,01425.6042,E,1.08,274.00,150606,,*07
$GPGGA,181516.0,5006.3653,N,01425.6041,E,1,07,,202.000000,M,,,,,*31
$GPRMC,181516.0,A,5006.3653,N,01425.6041,E,,,,,*08
$GPGGA,181516.0,5006.3653,N,01425.6041,E,1,,,,M,,,,,*28
$GPRMC,181516.0,A,5006.3653,N,01425.6041,E,1.08,275.00,150606,,*05
$GPGGA,181517.0,5006.3653,N,01425.6032,E,1,07,,202.000000,M,,,,,*34
$GPRMC,181517.0,A,5006.3653,N,01425.6032,E,0.54,318.00,150606,,*02
$GPGGA,181518.0,5006.3652,N,01425.6023,E,1,07,,202.000000,M,,,,,*3A
$GPRMC,181518.0,A,5006.3652,N,01425.6023,E,,,,,*03
$GPGGA,181518.0,5006.3652,N,01425.6023,E,1,,,,M,,,,,*23
$GPRMC,181518.0,A,5006.3652,N,01425.6023,E,2.16,259.00,150606,,*0C
$GPGGA,181519.0,5006.3652,N,01425.6015,E,1,07,,202.000000,M,,,,,*3E
$GPRMC,181519.0,A,5006.3652,N,01425.6015,E,1.62,271.00,150606,,*02
$GPGGA,181520.0,5006.3653,N,01425.6005,E,1,07,,201.000000,M,,,,,*37
$GPRMC,181520.0,A,5006.3653,N,01425.6005,E,,,,,*0D
$GPGGA,181520.0,5006.3653,N,01425.6005,E,1,,,,M,,,,,*2D
$GPRMC,181520.0,A,5006.3653,N,01425.6005,E,1.62,275.00,150606,,*0C
$GPGGA,181521.0,5006.3654,N,01425.6002,E,1,07,,201.000000,M,,,,,*36
$GPRMC,181521.0,A,5006.3654,N,01425.6002,E,0.54,293.00,150606,,*01
$GPGGA,181522.0,5006.3656,N,01425.6002,E,1,07,,201.000000,M,,,,,*37
$GPRMC,181522.0,A,5006.3656,N,01425.6002,E,,,,,*0D
$GPGGA,181522.0,5006.3656,N,01425.6002,E,1,,,,M,,,,,*2D
$GPRMC,181522.0,A,5006.3656,N,01425.6002,E,0.00,291.00,150606,,*03
$GPGGA,181523.0,5006.3657,N,01425.5999,E,1,07,,200.000000,M,,,,,*3E
$GPRMC,181523.0,A,5006.3657,N,01425.5999,E,0.54,290.00,150606,,*0B
$GPGGA,181524.0,5006.3657,N,01425.5993,E,1,07,,200.000000,M,,,,,*33
$GPRMC,181524.0,A,5006.3657,N,01425.5993,E,,,,,*08
$GPGGA,181524.0,5006.3657,N,01425.5993,E,1,,,,M,,,,,*28
$GPRMC,181524.0,A,5006.3657,N,01425.5993,E,1.08,258.00,150606,,*0A
$GPGGA,181525.0,5006.3657,N,01425.5987,E,1,07,,200.000000,M,,,,,*37
$GPRMC,181525.0,A,5006.3657,N,01425.5987,E,1.08,267.00,150606,,*02
$GPGGA,181526.0,5006.3659,N,01425.5981,E,1,07,,199.000000,M,,,,,*3F
$GPRMC,181526.0,A,5006.3659,N,01425.5981,E,1.08,289.00,150606,,*09
$GPGGA,181527.0,5006.3661,N,01425.5973,E,1,07,,199.000000,M,,,,,*38
$GPRMC,181527.0,A,5006.3661,N,01425.5973,E,1.08,297.00,150606,,*01
$GPGGA,181528.0,5006.3659,N,01425.5961,E,1,07,,198.000000,M,,,,,*3E
$GPRMC,181528.0,A,5006.3659,N,01425.5961,E,1.08,278.00,150606,,*07
$GPGGA,181529.0,5006.3657,N,01425.5949,E,1,07,,198.000000,M,,,,,*3B
$GPRMC,181529.0,A,5006.3657,N,01425.5949,E,0.54,276.00,150606,,*04
$GPGGA,181530.0,5006.3654,N,01425.5937,E,1,07,,198.000000,M,,,,,*39
$GPRMC,181530.0,A,5006.3654,N,01425.5937,E,0.54,267.00,150606,,*06
$GPGGA,181531.0,5006.3655,N,01425.5931,E,1,07,,198.000000,M,,,,,*3F
$GPRMC,181531.0,A,5006.3655,N,01425.5931,E,0.54,282.00,150606,,*0B
$GPGGA,181532.0,5006.3653,N,01425.5924,E,1,07,,198.000000,M,,,,,*3E
$GPRMC,181532.0,A,5006.3653,N,01425.5924,E,,,,,*07
$GPGGA,181532.0,5006.3653,N,01425.5924,E,1,,,,M,,,,,*27
$GPRMC,181532.0,A,5006.3653,N,01425.5924,E,0.54,254.00,150606,,*01
$GPGGA,181533.0,5006.3652,N,01425.5916,E,1,07,,198.000000,M,,,,,*3F
$GPRMC,181533.0,A,5006.3652,N,01425.5916,E,1.08,255.00,150606,,*09
$GPGGA,181534.0,5006.3650,N,01425.5905,E,1,,,,M,,,,,*21
$GPRMC,181534.0,A,5006.3650,N,01425.5905,E,1.08,259.00,150606,,*02
$GPGGA,181535.0,5006.3648,N,01425.5896,E,1,07,,198.000000,M,,,,,*3B
$GPRMC,181535.0,A,5006.3648,N,01425.5896,E,1.62,269.00,150606,,*0E
$GPGGA,181536.0,5006.3647,N,01425.5887,E,1,07,,198.000000,M,,,,,*37
$GPRMC,181536.0,A,5006.3647,N,01425.5887,E,1.08,246.00,150606,,*03
$GPGGA,181537.0,5006.3640,N,01425.5871,E,1,07,,198.000000,M,,,,,*38
$GPRMC,181537.0,A,5006.3640,N,01425.5871,E,,,,,*01
$GPGGA,181537.0,5006.3640,N,01425.5871,E,1,,,,M,,,,,*21
$GPRMC,181537.0,A,5006.3640,N,01425.5871,E,1.08,249.00,150606,,*03
$GPGGA,181538.0,5006.3634,N,01425.5856,E,1,07,,199.000000,M,,,,,*30
$GPRMC,181538.0,A,5006.3634,N,01425.5856,E,1.08,238.00,150606,,*0C
$GPGGA,181539.0,5006.3628,N,01425.5843,E,1,07,,200.000000,M,,,,,*3B
$GPRMC,181539.0,A,5006.3628,N,01425.5843,E,,,,,*00
$GPGGA,181539.0,5006.3628,N,01425.5843,E,1,,,,M,,,,,*20
$GPRMC,181539.0,A,5006.3628,N,01425.5843,E,1.08,230.00,150606,,*0C
$GPGGA,181540.0,5006.3624,N,01425.5833,E,1,07,,200.000000,M,,,,,*3E
$GPRMC,181540.0,A,5006.3624,N,01425.5833,E,1.08,251.00,150606,,*0E
$GPGGA,181541.0,5006.3623,N,01425.5829,E,1,07,,200.000000,M,,,,,*33
$GPRMC,181541.0,A,5006.3623,N,01425.5829,E,0.54,259.00,150606,,*03
$GPGGA,181542.0,5006.3621,N,01425.5821,E,1,07,,200.000000,M,,,,,*3A
$GPRMC,181542.0,A,5006.3621,N,01425.5821,E,1.08,237.00,150606,,*0A
$GPGGA,181543.0,5006.3616,N,01425.5812,E,1,,,,M,,,,,*24
$GPRMC,181543.0,A,5006.3616,N,01425.5812,E,1.62,225.00,150606,,*00
$GPGGA,181544.0,5006.3612,N,01425.5805,E,1,07,,200.000000,M,,,,,*3A
$GPRMC,181544.0,A,5006.3612,N,01425.5805,E,1.62,228.00,150606,,*08
$GPGGA,181545.0,5006.3608,N,01425.5799,E,1,07,,200.000000,M,,,,,*3A
$GPRMC,181545.0,A,5006.3608,N,01425.5799,E,1.08,231.00,150606,,*0C
$GPGGA,181546.0,5006.3605,N,01425.5792,E,1,07,,200.000000,M,,,,,*3F
$GPRMC,181546.0,A,5006.3605,N,01425.5792,E,1.62,227.00,150606,,*02
$GPGGA,181547.0,5006.3601,N,01425.5785,E,1,07,,200.000000,M,,,,,*3C
$GPRMC,181547.0,A,5006.3601,N,01425.5785,E,1.62,224.00,150606,,*02
$GPGGA,181548.0,5006.3598,N,01425.5780,E,1,07,,200.000000,M,,,,,*35
$GPRMC,181548.0,A,5006.3598,N,01425.5780,E,1.08,208.00,150606,,*09
$GPGGA,181549.0,5006.3595,N,01425.5780,E,1,07,,200.000000,M,,,,,*39
$GPRMC,181549.0,A,5006.3595,N,01425.5780,E,,,,,*02
$GPGGA,181549.0,5006.3595,N,01425.5780,E,1,,,,M,,,,,*22
$GPRMC,181549.0,A,5006.3595,N,01425.5780,E,0.54,155.00,150606,,*06
$GPGGA,181550.0,5006.3590,N,01425.5778,E,1,07,,200.000000,M,,,,,*33
$GPRMC,181550.0,A,5006.3590,N,01425.5778,E,1.62,188.00,150606,,*08
$GPGGA,181551.0,5006.3587,N,01425.5779,E,1,07,,200.000000,M,,,,,*35
$GPRMC,181551.0,A,5006.3587,N,01425.5779,E,1.08,165.00,150606,,*01
$GPGGA,181552.0,5006.3584,N,01425.5784,E,1,07,,200.000000,M,,,,,*37
$GPRMC,181552.0,A,5006.3584,N,01425.5784,E,1.08,163.00,150606,,*05
$GPGGA,181553.0,5006.3581,N,01425.5786,E,1,07,,199.000000,M,,,,,*32
$GPRMC,181553.0,A,5006.3581,N,01425.5786,E,0.54,147.00,150606,,*0D
$GPGGA,181554.0,5006.3577,N,01425.5791,E,1,07,,199.000000,M,,,,,*3A
$GPRMC,181554.0,A,5006.3577,N,01425.5791,E,,,,,*02
$GPGGA,181554.0,5006.3577,N,01425.5791,E,1,,,,M,,,,,*22
$GPRMC,181554.0,A,5006.3577,N,01425.5791,E,1.08,130.00,150606,,*0D
$GPGGA,181555.0,5006.3574,N,01425.5799,E,1,07,,199.000000,M,,,,,*30
$GPRMC,181555.0,A,5006.3574,N,01425.5799,E,1.62,126.00,150606,,*0C
$GPGGA,181556.0,5006.3571,N,01425.5807,E,1,07,,199.000000,M,,,,,*3E
$GPRMC,181556.0,A,5006.3571,N,01425.5807,E,0.54,118.00,150606,,*0B
$GPGGA,181557.0,5006.3567,N,01425.5813,E,1,07,,200.000000,M,,,,,*3E
$GPRMC,181557.0,A,5006.3567,N,01425.5813,E,0.54,104.00,150606,,*05
$GPGGA,181558.0,5006.3563,N,01425.5821,E,1,07,,199.000000,M,,,,,*37
$GPRMC,181558.0,A,5006.3563,N,01425.5821,E,1.08,123.00,150606,,*02
$GPGGA,181559.0,5006.3560,N,01425.5828,E,1,07,,200.000000,M,,,,,*3F
$GPRMC,181559.0,A,5006.3560,N,01425.5828,E,0.54,116.00,150606,,*07
$GPGGA,181600.0,5006.3558,N,01425.5835,E,1,07,,199.000000,M,,,,,*34
$GPRMC,181600.0,A,5006.3558,N,01425.5835,E,1.08,124.00,150606,,*06
$GPGGA,181601.0,5006.3555,N,01425.5841,E,1,07,,199.000000,M,,,,,*3B
$GPRMC,181601.0,A,5006.3555,N,01425.5841,E,,,,,*03
$GPGGA,181601.0,5006.3555,N,01425.5841,E,1,,,,M,,,,,*23
$GPRMC,181601.0,A,5006.3555,N,01425.5841,E,1.08,116.00,150606,,*08
$GPGGA,181602.0,5006.3553,N,01425.5847,E,1,07,,199.000000,M,,,,,*38
$GPRMC,181602.0,A,5006.3553,N,01425.5847,E,1.62,114.00,150606,,*05
$GPGGA,181603.0,5006.3551,N,01425.5853,E,1,07,,199.000000,M,,,,,*3E
$GPRMC,181603.0,A,5006.3551,N,01425.5853,E,1.08,124.00,150606,,*0C
$GPGGA,181604.0,5006.3549,N,01425.5861,E,1,07,,199.000000,M,,,,,*31
$GPRMC,181604.0,A,5006.3549,N,01425.5861,E,1.62,117.00,150606,,*0F
$GPGGA,181605.0,5006.3547,N,01425.5868,E,1,07,,198.000000,M,,,,,*36
$GPRMC,181605.0,A,5006.3547,N,01425.5868,E,,,,,*0F
$GPGGA,181605.0,5006.3547,N,01425.5868,E,1,,,,M,,,,,*2F
$GPRMC,181605.0,A,5006.3547,N,01425.5868,E,0.54,143.00,150606,,*0C
$GPGGA,181606.0,5006.3544,N,01425.5874,E,1,07,,198.000000,M,,,,,*3B
$GPRMC,181606.0,A,5006.3544,N,01425.5874,E,1.08,127.00,150606,,*0B
$GPGGA,181607.0,5006.3540,N,01425.5881,E,1,,,,M,,,,,*2D
$GPRMC,181607.0,A,5006.3540,N,01425.5881,E,1.62,147.00,150606,,*0E
$GPGGA,181608.0,5006.3538,N,01425.5890,E,1,07,,196.000000,M,,,,,*3A
$GPRMC,181608.0,A,5006.3538,N,01425.5890,E,1.08,112.00,150606,,*02
$GPGGA,181609.0,5006.3536,N,01425.5898,E,1,07,,196.000000,M,,,,,*3D
$GPRMC,181609.0,A,5006.3536,N,01425.5898,E,,,,,*0A
$GPGGA,181609.0,5006.3536,N,01425.5898,E,1,,,,M,,,,,*2A
$GPRMC,181609.0,A,5006.3536,N,01425.5898,E,1.08,133.00,150606,,*06
$GPGGA,181610.0,5006.3532,N,01425.5906,E,1,07,,197.000000,M,,,,,*36
$GPRMC,181610.0,A,5006.3532,N,01425.5906,E,1.62,138.00,150606,,*0B
$GPGGA,181611.0,5006.3529,N,01425.5912,E,1,07,,197.000000,M,,,,,*38
$GPRMC,181611.0,A,5006.3529,N,01425.5912,E,0.54,138.00,150606,,*01
$GPGGA,181612.0,5006.3525,N,01425.5919,E,1,07,,197.000000,M,,,,,*3C
$GPRMC,181612.0,A,5006.3525,N,01425.5919,E,2.16,140.00,150606,,*0E
$GPGGA,181613.0,5006.3520,N,01425.5927,E,1,07,,198.000000,M,,,,,*3A
$GPRMC,181613.0,A,5006.3520,N,01425.5927,E,1.62,136.00,150606,,*06
$GPGGA,181614.0,5006.3517,N,01425.5935,E,1,07,,199.000000,M,,,,,*3B
$GPRMC,181614.0,A,5006.3517,N,01425.5935,E,1.62,120.00,150606,,*01
$GPGGA,181615.0,5006.3513,N,01425.5943,E,1,07,,199.000000,M,,,,,*3F
$GPRMC,181615.0,A,5006.3513,N,01425.5943,E,1.62,133.00,150606,,*07
$GPGGA,181616.0,5006.3509,N,01425.5952,E,1,07,,199.000000,M,,,,,*37
$GPRMC,181616.0,A,5006.3509,N,01425.5952,E,1.62,121.00,150606,,*0C
$GPGGA,181617.0,5006.3506,N,01425.5959,E,1,07,,200.000000,M,,,,,*31
$GPRMC,181617.0,A,5006.3506,N,01425.5959,E,1.08,142.00,150606,,*00
$GPGGA,181618.0,5006.3503,N,01425.5968,E,1,07,,201.000000,M,,,,,*38
$GPRMC,181618.0,A,5006.3503,N,01425.5968,E,,,,,*02
$GPGGA,181618.0,5006.3503,N,01425.5968,E,1,,,,M,,,,,*22
$GPRMC,181618.0,A,5006.3503,N,01425.5968,E,1.62,124.00,150606,,*04
$GPGGA,181619.0,5006.3501,N,01425.5977,E,1,07,,201.000000,M,,,,,*35
$GPRMC,181619.0,A,5006.3501,N,01425.5977,E,1.08,129.00,150606,,*08
$GPGGA,181620.0,5006.3497,N,01425.5986,E,1,07,,202.000000,M,,,,,*3C
$GPRMC,181620.0,A,5006.3497,N,01425.5986,E,,,,,*05
$GPGGA,181620.0,5006.3497,N,01425.5986,E,1,,,,M,,,,,*25
$GPRMC,181620.0,A,5006.3497,N,01425.5986,E,1.62,133.00,150606,,*05
$GPGGA,181621.0,5006.3493,N,01425.5995,E,1,07,,202.000000,M,,,,,*3B
$GPRMC,181621.0,A,5006.3493,N,01425.5995,E,1.62,109.00,150606,,*0B
$GPGGA,181622.0,5006.3489,N,01425.6004,E,1,07,,203.000000,M,,,,,*30
$GPRMC,181622.0,A,5006.3489,N,01425.6004,E,1.62,135.00,150606,,*0E
$GPGGA,181623.0,5006.3486,N,01425.6011,E,1,07,,203.000000,M,,,,,*3A
$GPRMC,181623.0,A,5006.3486,N,01425.6011,E,0.54,129.00,150606,,*0D
$GPGGA,181624.0,5006.3482,N,01425.6018,E,1,07,,204.000000,M,,,,,*37
$GPRMC,181624.0,A,5006.3482,N,01425.6018,E,,,,,*08
$GPGGA,181624.0,5006.3482,N,01425.6018,E,1,,,,M,,,,,*28
$GPRMC,181624.0,A,5006.3482,N,01425.6018,E,1.08,133.00,150606,,*04
$GPGGA,181625.0,5006.3477,N,01425.6026,E,1,07,,205.000000,M,,,,,*30
$GPRMC,181625.0,A,5006.3477,N,01425.6026,E,1.08,130.00,150606,,*01
$GPGGA,181626.0,5006.3473,N,01425.6033,E,1,07,,205.000000,M,,,,,*33
$GPRMC,181626.0,A,5006.3473,N,01425.6033,E,,,,,*0D
$GPGGA,181626.0,5006.3473,N,01425.6033,E,1,,,,M,,,,,*2D
$GPRMC,181626.0,A,5006.3473,N,01425.6033,E,1.08,137.00,150606,,*05
$GPGGA,181627.0,5006.3468,N,01425.6040,E,1,07,,206.000000,M,,,,,*3F
$GPRMC,181627.0,A,5006.3468,N,01425.6040,E,1.62,131.00,150606,,*00
$GPGGA,181628.0,5006.3462,N,01425.6048,E,1,,,,M,,,,,*2F
$GPRMC,181628.0,A,5006.3462,N,01425.6048,E,1.62,142.00,150606,,*09
$GPGGA,181629.0,5006.3457,N,01425.6053,E,1,07,,207.000000,M,,,,,*3E
$GPRMC,181629.0,A,5006.3457,N,01425.6053,E,1.62,140.00,150606,,*06
$GPGGA,181630.0,5006.3454,N,01425.6058,E,1,07,,207.000000,M,,,,,*3E
$GPRMC,181630.0,A,5006.3454,N,01425.6058,E,1.08,149.00,150606,,*03
$GPGGA,181631.0,5006.3449,N,01425.6063,E,1,07,,207.000000,M,,,,,*3B
$GPRMC,181631.0,A,5006.3449,N,01425.6063,E,1.62,150.00,150606,,*02
$GPGGA,181632.0,5006.3443,N,01425.6066,E,1,07,,207.000000,M,,,,,*37
$GPRMC,181632.0,A,5006.3443,N,01425.6066,E,1.62,158.00,150606,,*06
$GPGGA,181633.0,5006.3437,N,01425.6071,E,1,07,,207.000000,M,,,,,*33
$GPRMC,181633.0,A,5006.3437,N,01425.6071,E,1.62,152.00,150606,,*08
$GPGGA,181634.0,5006.3431,N,01425.6076,E,1,07,,208.000000,M,,,,,*3A
$GPRMC,181634.0,A,5006.3431,N,01425.6076,E,,,,,*09
$GPGGA,181634.0,5006.3431,N,01425.6076,E,1,,,,M,,,,,*29
$GPRMC,181634.0,A,5006.3431,N,01425.6076,E,1.62,144.00,150606,,*09
$GPGGA,181635.0,5006.3425,N,01425.6080,E,1,07,,208.000000,M,,,,,*37
$GPRMC,181635.0,A,5006.3425,N,01425.6080,E,1.62,152.00,150606,,*03
$GPGGA,181636.0,5006.3419,N,01425.6085,E,1,07,,208.000000,M,,,,,*3E
$GPRMC,181636.0,A,5006.3419,N,01425.6085,E,,,,,*0D
$GPGGA,181636.0,5006.3419,N,01425.6085,E,1,,,,M,,,,,*2D
$GPRMC,181636.0,A,5006.3419,N,01425.6085,E,1.62,154.00,150606,,*0C
$GPGGA,181637.0,5006.3413,N,01425.6089,E,1,07,,208.000000,M,,,,,*39
$GPRMC,181637.0,A,5006.3413,N,01425.6089,E,2.16,168.00,150606,,*04
$GPGGA,181638.0,5006.3405,N,01425.6094,E,1,07,,209.000000,M,,,,,*3C
$GPRMC,181638.0,A,5006.3405,N,01425.6094,E,1.62,147.00,150606,,*0D
$GPGGA,181639.0,5006.3400,N,01425.6098,E,1,07,,210.000000,M,,,,,*3C
$GPRMC,181639.0,A,5006.3400,N,01425.6098,E,1.08,175.00,150606,,*08
$GPGGA,181640.0,5006.3395,N,01425.6100,E,1,07,,210.000000,M,,,,,*39
$GPRMC,181640.0,A,5006.3395,N,01425.6100,E,1.08,166.00,150606,,*0F
$GPGGA,181641.0,5006.3392,N,01425.6100,E,1,07,,209.000000,M,,,,,*37
$GPRMC,181641.0,A,5006.3392,N,01425.6100,E,,,,,*05
$GPGGA,181641.0,5006.3392,N,01425.6100,E,1,,,,M,,,,,*25
$GPRMC,181641.0,A,5006.3392,N,01425.6100,E,1.08,178.00,150606,,*06
$GPGGA,181642.0,5006.3387,N,01425.6102,E,1,07,,209.000000,M,,,,,*32
$GPRMC,181642.0,A,5006.3387,N,01425.6102,E,1.08,160.00,150606,,*0A
$GPGGA,181643.0,5006.3382,N,01425.6104,E,1,07,,210.000000,M,,,,,*38
$GPRMC,181643.0,A,5006.3382,N,01425.6104,E,,,,,*02
$GPGGA,181643.0,5006.3382,N,01425.6104,E,1,,,,M,,,,,*22
$GPRMC,181643.0,A,5006.3382,N,01425.6104,E,1.62,158.00,150606,,*0F
$GPGGA,181644.0,5006.3375,N,01425.6107,E,1,07,,210.000000,M,,,,,*34
$GPRMC,181644.0,A,5006.3375,N,01425.6107,E,2.16,161.00,150606,,*09
$GPGGA,181645.0,5006.3368,N,01425.6110,E,1,07,,210.000000,M,,,,,*3F
$GPRMC,181645.0,A,5006.3368,N,01425.6110,E,2.16,166.00,150606,,*05
$GPGGA,181646.0,5006.3363,N,01425.6111,E,1,07,,210.000000,M,,,,,*36
$GPRMC,181646.0,A,5006.3363,N,01425.6111,E,1.62,180.00,150606,,*04
$GPGGA,181647.0,5006.3356,N,01425.6112,E,1,07,,211.000000,M,,,,,*33
$GPRMC,181647.0,A,5006.3356,N,01425.6112,E,1.62,172.00,150606,,*0D
$GPGGA,181648.0,5006.3350,N,01425.6115,E,1,07,,211.000000,M,,,,,*3D
$GPRMC,181648.0,A,5006.3350,N,01425.6115,E,1.62,160.00,150606,,*00
$GPGGA,181649.0,5006.3343,N,01425.6120,E,1,07,,211.000000,M,,,,,*38
$GPRMC,181649.0,A,5006.3343,N,01425.6120,E,,,,,*03
$GPGGA,181649.0,5006.3343,N,01425.6120,E,1,,,,M,,,,,*23
$GPRMC,181649.0,A,5006.3343,N,01425.6120,E,1.62,167.00,150606,,*02
$GPGGA,181650.0,5006.3338,N,01425.6122,E,1,07,,211.000000,M,,,,,*3E
$GPRMC,181650.0,A,5006.3338,N,01425.6122,E,1.08,187.00,150606,,*06
$GPGGA,181651.0,5006.3335,N,01425.6123,E,1,07,,211.000000,M,,,,,*33
$GPRMC,181651.0,A,5006.3335,N,01425.6123,E,,,,,*08
$GPGGA,181651.0,5006.3335,N,01425.6123,E,1,,,,M,,,,,*28
$GPRMC,181651.0,A,5006.3335,N,01425.6123,E,0.54,157.00,150606,,*0E
$GPGGA,181652.0,5006.3334,N,01425.6123,E,1,07,,211.000000,M,,,,,*31
$GPRMC,181652.0,A,5006.3334,N,01425.6123,E,0.54,307.00,150606,,*0B
$GPGGA,181653.0,5006.3332,N,01425.6124,E,1,,,,M,,,,,*2A
$GPRMC,181653.0,A,5006.3332,N,01425.6124,E,0.54,149.00,150606,,*03
$GPGGA,181654.0,5006.3328,N,01425.6129,E,1,07,,207.000000,M,,,,,*37
$GPRMC,181654.0,A,5006.3328,N,01425.6129,E,1.62,165.00,150606,,*08
$GPGGA,181655.0,5006.3322,N,01425.6131,E,1,07,,206.000000,M,,,,,*34
$GPRMC,181655.0,A,5006.3322,N,01425.6131,E,1.62,168.00,150606,,*07
$GPGGA,181656.0,5006.3317,N,01425.6134,E,1,07,,206.000000,M,,,,,*34
$GPRMC,181656.0,A,5006.3317,N,01425.6134,E,0.00,100.00,150606,,*0C
$GPGGA,181657.0,5006.3313,N,01425.6137,E,1,07,,204.000000,M,,,,,*30
$GPRMC,181657.0,A,5006.3313,N,01425.6137,E,1.62,171.00,150606,,*09
$GPGGA,181658.0,5006.3305,N,01425.6141,E,1,07,,204.000000,M,,,,,*39
$GPRMC,181658.0,A,5006.3305,N,01425.6141,E,0.54,152.00,150606,,*05
$GPGGA,181659.0,5006.3299,N,01425.6145,E,1,07,,204.000000,M,,,,,*38
$GPRMC,181659.0,A,5006.3299,N,01425.6145,E,,,,,*07
$GPGGA,181659.0,5006.3299,N,01425.6145,E,1,,,,M,,,,,*27
$GPRMC,181659.0,A,5006.3299,N,01425.6145,E,1.62,162.00,150606,,*03
$GPGGA,181700.0,5006.3291,N,01425.6148,E,1,07,,203.000000,M,,,,,*37
$GPRMC,181700.0,A,5006.3291,N,01425.6148,E,2.16,174.00,150606,,*0C
$GPGGA,181701.0,5006.3283,N,01425.6150,E,1,07,,202.000000,M,,,,,*3D
$GPRMC,181701.0,A,5006.3283,N,01425.6150,E,1.62,176.00,150606,,*05
$GPGGA,181702.0,5006.3276,N,01425.6152,E,1,07,,202.000000,M,,,,,*36
$GPRMC,181702.0,A,5006.3276,N,01425.6152,E,1.62,166.00,150606,,*0F
